{
    "regions": [
        {
            "zoom": 3.0,
            "name": "Africa & Middle East",
            "id": "africa-middle-east",
            "coords": {
                "lng": 1.3271339,
                "lat": 2.9660291
            }
        },
        {
            "zoom": 3.0,
            "name": "Asia Pacific",
            "id": "asia-pacific",
            "coords": {
                "lng": 127.6560787,
                "lat": 0.0524811
            }
        },
        {
            "zoom": 4.0,
            "name": "Europe",
            "id": "europe",
            "coords": {
                "lng": 7.4033438,
                "lat": 46.1352815
            }
        },
        {
            "zoom": 3.0,
            "name": "Latin America",
            "id": "latin-america",
            "coords": {
                "lng": -99.2316195,
                "lat": -17.5554497
            }
        },
        {
            "zoom": 4.0,
            "name": "North America",
            "id": "north-america",
            "coords": {
                "lng": -97.1547448,
                "lat": 45.7128252
            }
        }
    ],
    "offices": [
        {
            "region": "europe",
            "phone": "",
            "name": "Aarhus",
            "lng": 10.187372,
            "lat": 56.172249,
            "image": "https://lh3.googleusercontent.com/tpBMFN5os8K-qXIHiAX5SZEmN5fCzIGrj9FdJtbZPUkC91ookSoY520NYn7fK5yqmh1L1m3F2SJA58v6Qps3JusdrxoFSwk6Ajv2K88",
            "id": "aarhus",
            "address": "Aabogade 15
8200 Aarhus
Denmark"
        },
        {
            "region": "europe",
            "phone": "",
            "name": "Amsterdam",
            "lng": 4.872066,
            "lat": 52.337801,
            "image": "https://lh3.googleusercontent.com/gG1zKXcSmRyYWHwUn2Z0MITpdqwb52RAEp3uthG2J5Xl-4_Wz7_WmoM6T_TBg6Ut3L1eF-8XENO10sxVIFdQHilj8iRG29wROpSoug",
            "id": "amsterdam",
            "address": "Claude Debussylaan 34
1082 MD, Amsterdam
Netherlands"
        },
        {
            "region": "north-america",
            "phone": "+1 734-332-6500",
            "name": "Ann Arbor",
            "lng": -83.7140833,
            "lat": 42.3063848,
            "image": "https://lh3.googleusercontent.com/Iim0OVcAgg9vmXc5ADn9KvOQFplrMZ8hBTg2biiTtuWPy_r56cy4Byx1ROk6coGt7knQdmx_jO45VX1kiCJZ0QzEtS97AP_BYG4F2w",
            "id": "ann-arbor",
            "address": "2300 Traverwood Dr.
Ann Arbor, MI 48105
United States"
        },
        {
            "region": "europe",
            "phone": "",
            "name": "Athens",
            "lng": 23.804595,
            "lat": 38.03902,
            "image": "https://lh3.googleusercontent.com/XroZnqewSrO6KuvXM5hDHtjUJzUcRQLZYfCKs4jP44dKezRvNx58uxaqUKS4fQ2eXzG2TpJNJ1X2xtfBe7Prl5hSG_xjPEF1xLtFodM",
            "id": "athens",
            "address": "Fragkokklisias 7
Athens 151 25
Greece"
        },
        {
            "region": "north-america",
            "phone": "+1 404-487-9000",
            "name": "Atlanta",
            "lng": -84.387301,
            "lat": 33.781827,
            "image": "https://lh3.googleusercontent.com/py7Qvqqoec1MB0dMKnGWn7ju9wET_dIneTb24U-ri8XAsECJnOaBoNmvfa51PIaC0rlsyQvQXvAK8RdLqpkhpkRSzmhNKqb-tY2_",
            "id": "atlanta",
            "address": "10 10th Street NE
Atlanta, GA 30309
United States"
        },
        {
            "region": "north-america",
            "phone": "+1 512-343-5283",
            "name": "Austin",
            "lng": -97.749237,
            "lat": 30.266035,
            "image": "https://lh3.googleusercontent.com/WFaJgWPdd7xPL7CQHizlqEzLDjT_GUAiWHIWUM0PiVSsv8q3Rjt9QgbyQazuQwYfN5qLORajv8eKSHlKwZo-M89T2Y12zFSxSIme08c",
            "id": "austin",
            "address": "500 W 2nd St
Suite 2900
Austin, TX 78701
United States"
        },
        {
            "region": "asia-pacific",
            "phone": "+91-80-67218000",
            "name": "Bangalore",
            "lng": 77.660176,
            "lat": 12.99332,
            "image": "https://lh3.googleusercontent.com/YDyQevoY-D0eZQ9sYHp8dQjpFF5JpLfLK-0OM-uJK1oNK3_LRnGJAM0uXi9qb9UigKnVIIXlIgidxhRlnaB_FPtUOqPzrsCSiFZyoQ",
            "id": "bangalore",
            "address": "No. 3, RMZ Infinity - Tower E
Old Madras Road
4th and 5th Floors
Bangalore, 560 016, India"
        },
        {
            "region": "asia-pacific",
            "phone": "",
            "name": "Bangkok",
            "lng": 100.547983,
            "lat": 13.742866,
            "image": "https://lh3.googleusercontent.com/nh9uOUPj6iWjKZSHIrnkfGhIWGBb8thguRM5_ehCOkyF-qfwzYciDJFVRSvQ6QxlSA6eZUMkzgdW9zR0Gab2ZZPg8NlB7V_V3wB5",
            "id": "bangkok",
            "address": "57 Park Ventures Ecoplex
14th Floor, Wireless Road
Bangkok, 10330, Thailand"
        },
        {
            "region": "asia-pacific",
            "phone": "+86-10-62503000",
            "name": "Beijing",
            "lng": 116.3265708,
            "lat": 39.9848878,
            "image": "https://lh3.googleusercontent.com/v_tD3VvC8-dnhqSF9xhj5Hx7F_bb3-wieM19i-Ho2C3by6mt7-JpPc7KsYVHUZFqQl5ON3adVEV1N4OlzSvHLrr3sr4GtXErDbGC",
            "id": "beijing",
            "address": "6th Floor, Tower B, Raycom InfoTech Park 
No. 2 Kexueyuan South Road 
Zhongguancun Beijing 100190"
        },
        {
            "region": "latin-america",
            "phone": "+55-31-2128-6800",
            "name": "Belo Horizonte",
            "lng": -43.920845,
            "lat": -19.920225,
            "image": "https://lh3.googleusercontent.com/f7F8gTi9GSgAZR3lv24I1yb-D0wRlDy0lQTcxCB4yJGtSgxrWdKoB3dX3J8SMrjYLwOSXquO3LuGFUE82QUjzVK9buHGNIRUPGpqM3E",
            "id": "belo-horizonte",
            "address": "Boulevard Corporate Tower
Av. dos Andradas, 3000 - Andares 14-17
Santa Efigênia
Belo Horizonte
30260-070, Brazil"
        },
        {
            "region": "europe",
            "phone": "+49 30 303986300",
            "name": "Berlin",
            "lng": 13.39203120000002,
            "lat": 52.5231079,
            "image": "https://lh3.googleusercontent.com/XcPyEMiSlLdZJq7nh3orGy3UqjtUHdhxXiwn52ZY47wfEChfZNDO78zDy9H0tBeegogZBZpIE0Q9mdVBGN4aQ0M5vfgz8ZWMEe43Mg",
            "id": "berlin",
            "address": "Tucholskystraße 2 
10117 Berlin
Germany"
        },
        {
            "region": "latin-america",
            "phone": "+57 (1) 5939400",
            "name": "Bogota",
            "lng": -74.046901,
            "lat": 4.678267,
            "image": "https://lh3.googleusercontent.com/_APoV1zAR0g5_pXVDlT2ovgNQfr3zvjOuj4HFHViiy2ahyjapJMXlYRE48qYMyFTWXJybbK4psz-fQ82QhMhO0keYJ27I8tNTHe_ww",
            "id": "bogota",
            "address": "Carrera 11A 94 - 45
Centro Empresarial Oxo Center
Bogota, Colombia"
        },
        {
            "region": "north-america",
            "phone": "+1 303-245-0086",
            "name": "Boulder",
            "lng": -105.260139,
            "lat": 40.021693,
            "image": "https://lh3.googleusercontent.com/lF9KBhOolmb958FFmMdLwFcedQAn1wEsVleBRrJQmyfhvD3u4lwCneR09ADJ9sG4tMBP5LDSLkn9bkbavzyqqql_0X7hj39dzl-n1w",
            "id": "boulder",
            "address": "2600 Pearl Street
Boulder, CO 80302
United States"
        },
        {
            "region": "north-america",
            "phone": "+1 303-245-0086",
            "name": "Boulder – Pearl Place",
            "lng": -105.253978,
            "lat": 40.021948,
            "image": "https://lh3.googleusercontent.com/_JvBccdhLZSIxenZEubM2Qu8Eky6udmnwekH7BhjI1EUo8mCDXDHa0Z7mfNzvZtlmiXI6b6w8U-PY47oUQhPtvYazGS4mG8S61Rr",
            "id": "boulder-pearl",
            "address": "2930 Pearl St
Boulder, CO 80301
United States"
        },
        {
            "region": "north-america",
            "phone": "+1 303-245-0086",
            "name": "Boulder – Walnut",
            "lng": -105.24936,
            "lat": 40.01993,
            "image": "https://lh3.googleusercontent.com/nGvIFmh9d2J68l-U7gYdQAqLZkLNNS_pqhNMtGopMujEpZEneMSH75NFr1WmXJC0GafDLyTVSpnqbuj5Tfjjjk889Zk23dIggqNN",
            "id": "boulder-walnut",
            "address": "3333 Walnut St
Boulder CO, 80301
United States"
        },
        {
            "region": "europe",
            "phone": "",
            "name": "Brussels",
            "lng": 4.380984,
            "lat": 50.839315,
            "image": "https://lh3.googleusercontent.com/Vdcj2ozYBIOyJLAhRyQic7xjw-OfQ_F5b8M9Kaom_56M2zp8UW65Lm1bYJLLEc4_U4tXfAp-CA81U2O2tdHcXPdsCEUO0hyK_SFKF-Y",
            "id": "brussels",
            "address": "Chaussee d'Etterbeek 180
1040 Brussels
Belgium"
        },
        {
            "region": "latin-america",
            "phone": "+54-11-5530-3000",
            "name": "Buenos Aires",
            "lng": -58.366992,
            "lat": -34.602734,
            "image": "https://lh3.googleusercontent.com/08n-ZBH23cWYWAbRo7_uZ6VObzDOLdfvxiAy4vZvX2I_FBn4vlUl_qiwALWBMUp7gQ4LEkj7aW6gB_jdJWNmnsmYEKbWzNsh0EaYpw",
            "id": "buenos-aires",
            "address": "Alicia M. De Justo 350, 2nd Floor
Buenos Aires, C1107AAH
Argentina"
        },
        {
            "region": "north-america",
            "phone": "+1 617-575-1300",
            "name": "Cambridge",
            "lng": -71.087109,
            "lat": 42.362757,
            "image": "https://lh3.googleusercontent.com/OLL4nJ-esDQ3JFh2XpWSpX8WnO69yzFpYPWIy9yL_2WFapf74z_ZYvfqb4XkF0_hT2rCi3pzN2Y-yglQ-jWMw3u89YKwn4GfdT7FfQ",
            "id": "cambridge",
            "address": "355 Main Street
Cambridge, MA 02142
United States"
        },
        {
            "region": "north-america",
            "phone": "",
            "name": "Chapel Hill",
            "lng": -79.058488,
            "lat": 35.912445,
            "image": "https://lh3.googleusercontent.com/AHShjZrvscMoWixuAd0zIXqER2wKMXtoqX4edIzur3FRLJ3DBDIAQqD6PZqB4it_ApAVyitFkjsRPER38oX6XHYOl9mxKbLCXrAQKA",
            "id": "chapel-hill",
            "address": "200 West Franklin Street
Chapel Hill, NC 27516
United States"
        },
        {
            "region": "north-america",
            "phone": "",
            "name": "Chicago – Carpenter",
            "lng": -87.65333,
            "lat": 41.88609,
            "image": "https://lh3.googleusercontent.com/pgZ_JGnbpqS4P8H29c6hOCQcLXiG1EZEw5W92FKddWuUTW8618AwIho27aAFPmniDUpH_jS3mCpAx3nY6WkT46oetsFMC__SrPCUmw",
            "id": "chicago-carpenter",
            "address": "210 Carpenter Ave
Chicago, IL 60607
United States"
        },
        {
            "region": "north-america",
            "phone": "+1 312-840-4100",
            "name": "Chicago – Fulton Market",
            "lng": -87.6526874,
            "lat": 41.8873457,
            "image": "https://lh3.googleusercontent.com/ulGqMc02YGomqRC2EN0JP7jOL-6qaIvhCq225DwyeP7b8l-H7ZTWkYDwVKHc0Z4nXEq_TBRCqqPfcc3N8WHm54XpOh16Yx73F4ng",
            "id": "chicago-fulton",
            "address": "320 N. Morgan, Suite 600
Chicago, IL 60607
United States"
        },
        {
            "region": "europe",
            "phone": "+45 3370 2600",
            "name": "Copenhagen",
            "lng": 12.570071,
            "lat": 55.680452,
            "image": "https://lh3.googleusercontent.com/SNSbrYGI_ZBuCl_S8aRh63IIta895tqIUUX3ZT0FWmK7ykhJRy_HNtzoud7XrohnjnSAkuXg9YykkFZqbvkRiZQC7osXrZzGerWdmG8",
            "id": "copenhagen",
            "address": "Skt. Petri Passage 5
1165 Copenhagen
Denmark"
        },
        {
            "region": "north-america",
            "phone": "+1 248-593-4003",
            "name": "Detroit",
            "lng": -83.054494,
            "lat": 42.340458,
            "image": "https://lh3.googleusercontent.com/WEP2INGXZc9vRv1ii6KDZGoRFPyumV466B3RzUwyzf8W81a7du2KGXlDEqS5g0nbOHsYTAvagFGVJskSonpt6wJWN2mVq8ti7JYPtvs",
            "id": "detroit",
            "address": "52 Henry St.
3rd Floor
Detroit, MI 48201
Amerika Serikat"
        },
        {
            "region": "africa-middle-east",
            "phone": "+971 4 4509500",
            "name": "Dubai",
            "lng": 55.1591,
            "lat": 25.0929,
            "image": "https://lh3.googleusercontent.com/xw0iylnw3b3-qxwoNzLSLJlAAPtkF1KONnIoBTDHtURr04fzH9DeO08GYvEsKYQtE9GCdOMTk_s08H6-btSquKo3moeILfc3Kpu4MA",
            "id": "dubai",
            "address": "TECOM Zone, Dubai Internet City
Dubai, United Arab Emirates"
        },
        {
            "region": "europe",
            "phone": "",
            "name": "Dublin",
            "lng": -6.2360967,
            "lat": 53.3399526,
            "image": "https://lh3.googleusercontent.com/1z3Fhr6nKlCDeTwc1KoFAMSrnywR0lb8nNdwTI1YgoKSXKIDjQeVB_I3Q8oDZuqqHtlXiUbPmfoUYyAXMObjvMxDcMeTqSY21YvP_A",
            "id": "dublin",
            "address": "Gordon House
Barrow St
Dublin 4
Ireland"
        },
        {
            "region": "asia-pacific",
            "phone": "",
            "name": "Guangzhou",
            "lng": 113.3332488,
            "lat": 23.1339728,
            "image": "https://lh3.googleusercontent.com/BjYQfVMor1QT5hAkc7DcN6_MJdwaySHY6VJ6IY7mQGJRdXjFZhiP-t4MV_QUbp0tBeuYvuMw3nUetTiI-vFl6-BcialJhhurhFrDVeY",
            "id": "guangzhou",
            "address": "Taikoo Hui Tower 1, No.383 Tianhe Road
Guangzhou, 510620
China"
        },
        {
            "region": "asia-pacific",
            "phone": "+91-12-44512900",
            "name": "Gurgaon",
            "lng": 77.048194,
            "lat": 28.460581,
            "image": "https://lh3.googleusercontent.com/8plKBiWKmwllCXePad0JJ22u1GG7Qe1hveXlx_xJ87XoiQpclQubwxyGxcDU6tkatpb3oi9MYXjm2XszFi5kGn1flfTtjv6MycBWrQ",
            "id": "gurgaon",
            "address": "Sector 15, Part II Village Silokhera
Gurgaon 122001
India"
        },
        {
            "region": "africa-middle-east",
            "phone": "+972-74-746-6245",
            "name": "Haifa",
            "lng": 34.958432,
            "lat": 32.78897,
            "image": "https://lh3.googleusercontent.com/syKfT9cVMzLi0d4_DSiJztWGwcmWct6IEbpAApEFk_G8ym0xyLLxMBT484zROIOZHMSe9N1o-QQrCAqVWfKRSY6EOeJY9Qa1ftwb",
            "id": "haifa",
            "address": "Building 30
MATAM, Advanced Technology Center
Haifa, 3190500
Israel "
        },
        {
            "region": "europe",
            "phone": "49 40-80-81-79-000",
            "name": "Hamburg",
            "lng": 9.986229,
            "lat": 53.553752,
            "image": "https://lh3.googleusercontent.com/66R0svr2--6zNOnrqf6JbeZ-bF39bRfHpExjcTlE_AIlPEPk8jO1LjF39FUbDnJB1gh_FiRFX6aCRg4ACjYRbDqb5lf9PdV6qY4S",
            "id": "hamburg",
            "address": "ABC-Strasse 19
20354 Hamburg
Germany"
        },
        {
            "region": "asia-pacific",
            "phone": "+852-3923-5400",
            "name": "Hong Kong",
            "lng": 114.18176,
            "lat": 22.278203,
            "image": "https://lh3.googleusercontent.com/-Ult8_R6TfQAk16CfjSfl6PLypQBYohUjNjE6xeeektZsrP8XwTv7PnVVE-5Ueh3I-2hPnAdRGg6XrMn9IwI7W1h5LJKtlMVe93Wfw",
            "id": "hong-kong",
            "address": "1 Matheson Street
Causeway Bay, Hong Kong"
        },
        {
            "region": "asia-pacific",
            "phone": "+91-40-6619-3000",
            "name": "Hyderabad",
            "lng": 78.372452,
            "lat": 17.458461,
            "image": "https://lh3.googleusercontent.com/LAEnc0tzA-JSb5XM5oct5paX98QK9zh_aqa_qKcjAoXo2MChgOjdj_EZpgIZsVAvEY-I0bmMmhCBb5gkoVN4ebqCG9ZfjCbo_stJaw",
            "id": "hyderabad",
            "address": "Survey No. 13, DivyaSree Omega
Kondapur Village
Hyderabad, Telangana 500084
India"
        },
        {
            "region": "north-america",
            "phone": "+1 949-794-1600",
            "name": "Irvine",
            "lng": -117.859322,
            "lat": 33.658792,
            "image": "https://lh3.googleusercontent.com/LWGkhXkRRzWnMlNy_Ps74-VTxB2ISXK0Kkick1SujTLYvNAUqo9_HR7SILSZZsiaiGWsXtx7dR5Hz9Q5psu1MWP9BHtDuGYc_hz_eg",
            "id": "irvine",
            "address": "19510 Jamboree Road
Irvine, CA 92612
United States"
        },
        {
            "region": "africa-middle-east",
            "phone": "",
            "name": "Istanbul",
            "lng": 29.00859,
            "lat": 41.081697,
            "image": "https://lh3.googleusercontent.com/_mdN7z1Q-9fKgpHTb1rQJosllxqn7glRJ_G2enX4WPmImuJjLHKw-JBZ8z5B9vMSo12SexGBOD1i2NHXqEy4OaOJekn0g3Fp3bDk_Q",
            "id": "istanbul",
            "address": "Eski Buyukdere Caddesi No: 209
34394
Istanbul, Turkey"
        },
        {
            "region": "asia-pacific",
            "phone": "",
            "name": "Bandung",
            "lng": 107.57332,
            "lat": -6.948818,
            "image": "https://lh3.googleusercontent.com/JEaMUfOUq6bxN7jeIN1z2me5-JvlLRkrFJgf_A0GvqtOquU6Tfjg0ecKeR_Ck27L0S1zC2t_4I6nVP6pBdBtSKst7tkJEoC7LyYq",
            "id": "jakarta",
            "address": "Pacific Century Place Tower Level 45 SCBD Lot 10,
Jl. Jend. Sudirman No.53,
RT.5/RW.3, Senayan, Kby. Baru,
Kota Jakarta Selatan,
Daerah Khusus Ibukota Jakarta 12190, 
Indonesia"
        },
        {
            "region": "africa-middle-east",
            "phone": "",
            "name": "Johannesburg",
            "lng": 28.032035,
            "lat": -26.0734457,
            "image": "https://lh3.googleusercontent.com/EDxefwSgeKyh8zN9VUUGhu3hiBqH7Z3UEOXfZeij7YnUhZLqLElu8dhi4FziOepRun-fjfwIWdf5W8CTG5ZSYMu4k8z9QZjTgjQRuQ",
            "id": "johannesburg",
            "address": "35 Ballyclare Drive Building E
Johannesburg
2191, South Africa"
        },
        {
            "region": "north-america",
            "phone": "+1 425-739-5600",
            "name": "Kirkland",
            "lng": -122.196912,
            "lat": 47.669568,
            "image": "https://lh3.googleusercontent.com/Vgmu21GQbS0pga_tJaG0_35AYOzM64Uxp-zNYyMVnd3oXFHmHeMJpx8UjcsMYdnxbdlFZ4KGFowOtpHxsNlUw8qS21sYBy9jPbqkuA",
            "id": "kirkland",
            "address": "777 6th Street South
Kirkland, WA
United States"
        },
        {
            "region": "north-america",
            "phone": "+1-519-880-2300",
            "name": "Kitchener",
            "lng": -80.4992423,
            "lat": 43.4541137,
            "image": "https://lh3.googleusercontent.com/jUCZzQYnJXCUZ3ZxAEB14qukCV6aGxfh84hExpcpye314DhOWB4jtpUoNDrCtA2laV7qDHBAYGtIuZan9Ir5Hp6_U0B2zTGgPqsb",
            "id": "kitchener",
            "address": "51 Breithaupt Street
Kitchener, ON N2H 5G5
Canada"
        },
        {
            "region": "asia-pacific",
            "phone": "",
            "name": "Kuala Lumpur",
            "lng": 101.684609,
            "lat": 3.133445,
            "image": "https://lh3.googleusercontent.com/c5kAdRoyejY1Z5i9A3hYKfIG55GrKdAc0iJjH-gYo-tWd3JUksvsfZx7LU5yzay4HJmxCQEir2cejbZ2LurYfKL_emC9e9PCDVxd",
            "id": "kuala-lumpur",
            "address": "Axiata Tower
No. 9, Jalan Stesen Sentral 5
50470 Kuala Lumpur
Malaysia"
        },
        {
            "region": "europe",
            "phone": "+351 21 122 1803",
            "name": "Lisbon",
            "lng": -9.143781,
            "lat": 38.718887,
            "image": "https://lh3.googleusercontent.com/py3HZVLLpxjMhRL6fgUKmHqGODp6ZH-5abQBHGqyKrCyuoW0t-q0ypNVN_jOfD3ZEO08Y9Q0m-E4ZyuNrMgl-mlaECkCAEyc7Af1",
            "id": "lisbon",
            "address": "Avenida da Liberdade, 110
Lisbon, 1269-046, Portugal"
        },
        {
            "region": "europe",
            "phone": "+44-20-7031-3000",
            "name": "London - 6PS",
            "lng": -0.126026,
            "lat": 51.533311,
            "image": "https://lh3.googleusercontent.com/WTxWzt3AOcEMwoT2OonLTlc63pa4V-GsYbZg5Hu7rfe9ZioMaRurkxaQ5tOcuC9nZkCyh2IjQb-xMy4Tq8ISrHjfDHmzZXnExTjP",
            "id": "london-6ps",
            "address": "6 Pancras Square
London N1C 4AG
United Kingdom"
        },
        {
            "region": "europe",
            "phone": "+44-20-7031-3001",
            "name": "London - BEL",
            "lng": -0.146652,
            "lat": 51.494961,
            "image": "https://lh3.googleusercontent.com/bLxZNCaDE2Fdj7woV_9JUJEUfUvTrhI57jHNEeW-OenTspzM21miwz1gGydzZ2Ke_vfRdkqdo4dyN2mJCntC2p4qvRUyipPWppAC9g",
            "id": "london-bel",
            "address": "Belgrave House
76 Buckingham Palace Road
London SW1W 9TQ
United Kingdom"
        },
        {
            "region": "europe",
            "phone": "+44 (0)20-7031-3000",
            "name": "London - CSG",
            "lng": -0.12755,
            "lat": 51.516027,
            "image": "https://lh3.googleusercontent.com/32nlExbSrV5rJR9Qsqfkbckn6_yd-4QRaoSDmp9JLyaZxojfl9aH1LZSrSvcsT128AUzHqkEfMhTE2miDuOu7gj-7x3Ginqr4rgowg",
            "id": "london-csg",
            "address": "1-13 St Giles High St
London WC2H 8AG
United Kingdom"
        },
        {
            "region": "north-america",
            "phone": "+1 310-310-6000",
            "name": "Los Angeles",
            "lng": -118.4766773,
            "lat": 33.995939,
            "image": "https://lh3.googleusercontent.com/MWGnaY3t_1-j7YylPpq35rvBU9gIBJIsnrtW95THrBw9N0PWrAVtbHKUBH8OdxyWI9gYdymndmSgwS8tl23GylytyefNC74i4-pniQ",
            "id": "los-angeles",
            "address": "340 Main Street
Los Angeles, CA 90291
United States"
        },
        {
            "region": "north-america",
            "phone": "+1 608-669-9841",
            "name": "Madison",
            "lng": -89.374619,
            "lat": 43.081091,
            "image": "https://lh3.googleusercontent.com/sQDFJpbQl4EVGfdpHsw_24mxsnUNAnDs6f-00QCj0g_Z38CEqjG4PuLPoS_T6eTOPV3QXX907Kap_TkaE3cEG4fhJWIoWsZELIGyvw",
            "id": "madison",
            "address": "811 E Washington Ave
Suite 700
Madison, WI 53703
United States"
        },
        {
            "region": "europe",
            "phone": "+34 91-748-6400",
            "name": "Madrid",
            "lng": -3.6931161,
            "lat": 40.4505331,
            "image": "https://lh3.googleusercontent.com/x36CdPxkwxxctp0wvDYfTjgTzNgMiZV0xoKeLMwHzdccpJGYUA6a61fSeX1_Rt-lfofMjfUwAhFxd7DbjsE8_393plkTly-T5YkpCA",
            "id": "madrid",
            "address": "Plaza Pablo Ruiz Picasso, I
Madrid 28020
Spain"
        },
        {
            "region": "asia-pacific",
            "phone": "",
            "name": "Melbourne",
            "lng": 144.968737,
            "lat": -37.815328,
            "image": "https://lh3.googleusercontent.com/U_5KiB8x7T-Rrdp90ygnO1kbZxiWJz4G6CbD6_51CjH5zaMP23upWELryFOe99k_AqlPZschCY7Nx--wYufcIV54HnjGcP3lf28X1A",
            "id": "melbourne",
            "address": "161 Collins Street,
Melbourne VIC 3000,
Australia"
        },
        {
            "region": "latin-america",
            "phone": "+52 55-5342-8400",
            "name": "Mexico City",
            "lng": -99.2065518,
            "lat": 19.4283793,
            "image": "https://lh3.googleusercontent.com/P_U5ECZJ--t8khoKFxoeeJwa7PZy-3TriZbit5sRJDUdupf3NZRJegsnB4ucLqdLEV3De41fmByckDDC6uHMI82cXIFp4C1WwI1a1g",
            "id": "mexico-city",
            "address": "Google Mexico, S. de R.L. de C.V.
Montes Urales 445
Lomas de Chapultepec
Mexico City 11000, Mexico"
        },
        {
            "region": "north-america",
            "phone": "+1 305-985-7900",
            "name": "Miami",
            "lng": -80.1932144,
            "lat": 25.758473,
            "image": "https://lh3.googleusercontent.com/DTk99d9bCqiCN8sFj3FBr8BdGPYC97PCYbiLbdq6GZ-_Er268DSlvfRM_g8hwA5tOmw_6c3PBjpKpuRQTuXS8H8_hpIlCQKyobyYjQ",
            "id": "miami",
            "address": "1450 Brickell Ave Ste 900 
Miami FL 33131
United States"
        },
        {
            "region": "europe",
            "phone": "",
            "name": "Milan",
            "lng": 9.189546,
            "lat": 45.486147,
            "image": "https://lh3.googleusercontent.com/nZ_KE1LqNmW5qb6i-czLlm_yqRJtLmvEmyLRI0BYjqMlOiC_5VmbEI3DeHQyPOHp6PzoN2gKJ0j73BALkddFmDFXOIe9Wwctmt73cqI",
            "id": "milan",
            "address": "Porta Nuova Isola, Building C, Via Federico Confalonieri 4
20124 Milan
Italy"
        },
        {
            "region": "north-america",
            "phone": "514-670-8700",
            "name": "Montreal",
            "lng": -73.570365,
            "lat": 45.50191,
            "image": "https://lh3.googleusercontent.com/S310Um4pKym8bvHQcQmJLc4ohURWEq3AQHjJ-b5aMY-TpA9P4LCKcxGEg4fik-zSL6MrtiEi8Qt3JbAZl8x-GiI31wfm_myGfb3manQ",
            "id": "montreal",
            "address": "1253 McGill College Avenue
Montreal, QC H3B 2Y5
Canada"
        },
        {
            "region": "europe",
            "phone": "+7-495-644-1400",
            "name": "Moscow",
            "lng": 37.626435,
            "lat": 55.746747,
            "image": "https://lh3.googleusercontent.com/i6cwRxcix3LUdviTVKoLG2Ep6q9pjfPIX_nrge-YkgjIvTgCH5QQpSI6wCpKvg0HiH56lHu6K8eAkCrPZUCzspS6Y9K19U47xr4hww",
            "id": "moscow",
            "address": "7 Balchug St
Moscow 115035
Russia"
        },
        {
            "region": "north-america",
            "phone": "",
            "name": "Mountain View",
            "lng": -122.084101,
            "lat": 37.421512,
            "image": "https://lh3.googleusercontent.com/Mh8P8gvVwO7NOXfg8anxwPXRy5oKZJ6Cz_LbFfOVdeIsdDfogmMcMsiW7HD7HD2NOINzAPH_v8dALWSuDiiTjCjRnenI7B3l6Pg4yw",
            "id": "mountain-view",
            "address": "1600 Amphitheatre Parkway
Mountain View, CA 94043
United States"
        },
        {
            "region": "asia-pacific",
            "phone": "+91-22-6611-7150",
            "name": "Mumbai",
            "lng": 72.850591,
            "lat": 19.054364,
            "image": "https://lh3.googleusercontent.com/twldrlVORn84fYsOLwNLabfRPQYX-dJAzJtpam-Ea4D7QIY1pvMa9FCMbpjUFA8uniBg6XAh8pMijf9qnjmEm4d17UFkwRGToiv5Ug",
            "id": "mumbai",
            "address": "3 North Avenue
Maker Maxity, Bandra Kurla Complex
Bandra East
Mumbai, Maharashtra 400051
India"
        },
        {
            "region": "europe",
            "phone": "",
            "name": "Munich",
            "lng": 11.54083333,
            "lat": 48.14305556,
            "image": "https://lh3.googleusercontent.com/sVZqxencTTD84raIgMWd5SbmXZTvQmwUzxj6IakbIGuAua5JDu-Q64uJE-cm3TYeSjKVQo7VSwIODVpwswjtrpwBUvXTa5MDFXoNAw",
            "id": "munich",
            "address": "Erika-Mann-Str. 33
80636 Munich
Germany"
        },
        {
            "region": "north-america",
            "phone": "+1 212-565-0000",
            "name": "New York",
            "lng": -74.003102,
            "lat": 40.741445,
            "image": "https://lh3.googleusercontent.com/BWdXxSOqBpjGFzAJVVr02QQs5XSe33dEeNDG6lXhd-nuv32ruMjD01yBJX3Rk4_xP6glB1ycMvwypEPr6YO665grfWqEEI2LPYUaMg",
            "id": "new-york",
            "address": "111 8th Avenue
New York, NY 10011
United States"
        },
        {
            "region": "europe",
            "phone": "",
            "name": "Oslo",
            "lng": 10.72598,
            "lat": 59.90987,
            "image": "https://lh3.googleusercontent.com/lc9jPxaz4CzdC3sD4wFlzml1Y221PvtsisYGenint536WNbyIMY2cp2qnQOmnT0IWPoOCjarwMgK6zddvTcOu6YcAuaVLfQAdqZ2UQg",
            "id": "oslo",
            "address": "Aker Brygge
Bryggegata 6
0250 Oslo
Norway"
        },
        {
            "region": "europe",
            "phone": "",
            "name": "Paris",
            "lng": 2.33,
            "lat": 48.8771,
            "image": "https://lh3.googleusercontent.com/GHZlAB7t3toRGww1NJ6ZC2IpvR0jkgqFkQ0ZvM02dmQWt6fiHIKJZ7Eova959UD0PAapPE2r2TYMe3-dE3jGDgEoqHch0qyjAKvPENc",
            "id": "paris",
            "address": "8 Rue de Londres
75009 Paris
France"
        },
        {
            "region": "north-america",
            "phone": "+1 412-345-6700",
            "name": "Pittsburgh",
            "lng": -79.916596,
            "lat": 40.45716,
            "image": "https://lh3.googleusercontent.com/47kJwc4CR6oGOI2l_su5CJHnEWkrUZlz7LZRGXHgF71xa-0gJc8qCBhnsNoigcNEGFfBpb3y5AxVXJP_TxvHtgUgTrU8zmBm3Two7w",
            "id": "pittsburgh",
            "address": "6425 Penn Avenue
Pittsburgh, PA 15206
United States"
        },
        {
            "region": "north-america",
            "phone": "",
            "name": "Playa Vista",
            "lng": -118.407244,
            "lat": 33.97684,
            "image": "https://lh3.googleusercontent.com/xnHVNI6bCcQxJyLV6sG3op8PlJcT9XgMAGmHrXtj5axhCZPH7Tbc9Ppjb2gTCtGbKmilT17B0dKzczOJh9JANh8Wwz0SXH0pEqCOkQ",
            "id": "playa-vista",
            "address": "12422 W. Bluff Creek Drive
Playa Vista, CA 90094
United States"
        },
        {
            "region": "north-america",
            "phone": "",
            "name": "Portland",
            "lng": -122.677458,
            "lat": 45.521622,
            "image": "https://lh3.googleusercontent.com/FMeFmwWFZJD02kj0H73t5v8NPrVOecVxuCl9cA-vLiXgaXErYQxmMXJKvvROgwSNvgPdmRZ4-GQuub74p0dDwJgY37vBNN2vgx7Utw",
            "id": "portland",
            "address": "Wells Fargo Building, 309 SW 6th Ave
Portland, OR 97204
United States"
        },
        {
            "region": "europe",
            "phone": "",
            "name": "Prague",
            "lng": 14.402642,
            "lat": 50.070259,
            "image": "https://lh3.googleusercontent.com/jVNKH2mzDQ4Zu1-1G80-nDvLHYE9dmeetv43WG3zo7-dQWJoX1ghtXvviZHDLRG-ScqA804I2guuExY-8pkzIdkYlU28QGOB8Jkkiw",
            "id": "prague",
            "address": "Stroupeznickeho str. 3191/17
Prague, Czech Republic
150 00"
        },
        {
            "region": "north-america",
            "phone": "",
            "name": "Redwood City",
            "lng": -122.201178,
            "lat": 37.512171,
            "image": "https://lh3.googleusercontent.com/a7GCRT1go5jQzEQj--A-kq98pURYsO4cTCJPj6azEev7za4Y__Kd3E_khFyn5uxRtPC0Co_ZxzQtqrlXeOSNey8fOSV4pK0ffzSW5A",
            "id": "redwood-city",
            "address": "1600 Seaport Boulevard
Redwood City, CA 94063
United States"
        },
        {
            "region": "north-america",
            "phone": "+1 202-370-5600",
            "name": "Reston",
            "lng": -77.359795,
            "lat": 38.958309,
            "image": "https://lh3.googleusercontent.com/4WuJCZlLflcQjsyhsGX3VSGDEVmC0Ljq291ECgVk3nN89ppnhSbdQIRI1I1-qh5YEf0Yicdc6amuqKz7oAdgLvQoNBrM9Zh3BcUwSw",
            "id": "reston",
            "address": "1875 Explorer Street 
10th Floor
Reston, VA 20190
United States"
        },
        {
            "region": "north-america",
            "phone": "",
            "name": "San Bruno",
            "lng": -122.426491,
            "lat": 37.62816,
            "image": "https://lh3.googleusercontent.com/zcy-Un_QDZfx7nTlImk-jCocxSUjQAQ4SS0eVdBuNRZz3Nyb5WK_2oGwYpnBEdqjIcv_b-umq_akpWBEylaEp-wXk3pj9-gu6Ko9Igs",
            "id": "san-bruno",
            "address": "901 Cherry Avenue
San Bruno, CA 94066
United States"
        },
        {
            "region": "north-america",
            "phone": "+1 858-239-4000",
            "name": "San Diego",
            "lng": -117.181899,
            "lat": 32.90961,
            "image": "https://lh3.googleusercontent.com/RgGUUE3ra1j-mQIH8vp6an37hlwduD8uVnaCv8ivo5mX6ekdnZYd0-hlQ1hpQzV0ZgPk7y8h60oWy5MK5VF48ozZMYRXnh1ddJjuVGo",
            "id": "san-diego",
            "address": "6420 Sequence Dr 
Suite 400
San Diego, CA 92121
United States"
        },
        {
            "region": "north-america",
            "phone": "+1 415-736-0000",
            "name": "San Francisco",
            "lng": -122.390013,
            "lat": 37.789972,
            "image": "https://lh3.googleusercontent.com/OC_0_XdXLar-ytOETAv3uwRGfnLABSRu66hqLQpLrwIhqInPD6ccdZSEu_d5S8wmjc1knb9OM7yNh2K7hoGznvKZOgFlvrxJesd7mQ",
            "id": "san-francisco",
            "address": "345 Spear Street
San Francisco, CA 94105
United States"
        },
        {
            "region": "latin-america",
            "phone": "",
            "name": "Santiago",
            "lng": -70.605665,
            "lat": -33.413383,
            "image": "https://lh3.googleusercontent.com/KrMbZzxFsAcNmYg8BQL_qBAekN1bNNJGo1aar8nkFhYXYDYOBmwJc2x1XElkDdIqLdedU5V7QKTGxXne8-f-qAW_bOy1FUqmJ8JM",
            "id": "santiago",
            "address": "Costanera Sur Rio 2730 
Las Condes, Santiago
Chile"
        },
        {
            "region": "latin-america",
            "phone": "",
            "name": "Sao Paulo",
            "lng": -46.682078,
            "lat": -23.586479,
            "image": "https://lh3.googleusercontent.com/MwcGyEZBKkmoycVLcpl_U3gdIJBoWDU8u2kUNq57DmZVkWDyraoaZyQC0HOiFQvNHjVugEiVTWsy-poAsNfDLoSkJ5RoTBi1Hpd4GcI",
            "id": "sao-paulo",
            "address": "Av. Brigadeiro Faria Lima, 3477 
São Paulo
04538-133, Brazil"
        },
        {
            "region": "north-america",
            "phone": "+1 206-876-1800",
            "name": "Seattle",
            "lng": -122.350629,
            "lat": 47.649316,
            "image": "https://lh3.googleusercontent.com/pNaRyPV3SkqsVvmdmN0sC-viBupr-41tZM3_cpSNH_3Zdy826gIhM0zHfoowA6SCkcsOkUxDvJ8wG5CodorohisOgR9q_QE7wH1ua-M",
            "id": "seattle",
            "address": "601 N. 34th Street
Seattle, WA 98103
United States"
        },
        {
            "region": "asia-pacific",
            "phone": "+82-2-531-9000",
            "name": "Seoul",
            "lng": 127.036843,
            "lat": 37.500295,
            "image": "https://lh3.googleusercontent.com/i8rfvJIUNpLBkmWWSoetUzFGHUd_RaulLh8F3EHme3FMTUtDs8EVWsrFLuaemh1Zd60p5ndCcKq8-ZQN8eibbua-YNzlzQ8AKtHFzrQ",
            "id": "seoul",
            "address": "Google Korea LLC.
22nd Floor, Gangnam Finance Center
152 Teheran-ro, Gangnam-gu
Seoul 06236
South Korea"
        },
        {
            "region": "asia-pacific",
            "phone": "+86-21-6133-7666",
            "name": "Shanghai",
            "lng": 121.507662,
            "lat": 31.23464,
            "image": "https://lh3.googleusercontent.com/wFCKLAJvrAoE_GiXqRNa0w4Rsr0iY_SyMGbO2jnIhLXGanYs1c5_BPE8TxQJw-e14uaLDHjY772V-Vv-Kf3GmrIRSlHjoV9yD339wRQ",
            "id": "shanghai",
            "address": "100 Century Avenue, Pudong
Shanghai 200120
China"
        },
        {
            "region": "asia-pacific",
            "phone": "+65 6521-8000",
            "name": "Singapore",
            "lng": 103.798965,
            "lat": 1.276466,
            "image": "https://lh3.googleusercontent.com/--5H57B8aG4-DX9s79Spo3ygrsI9NMFnZo1uTZzs5s5AeeOvmiy81k__tu9r7JbRTTLzryK-oUy0UREclmD_qfV81VvaT4K9jJa8gg",
            "id": "singapore",
            "address": "70 Pasir Panjang Road, #03-71, 
Mapletree Business City 
Singapore 117371"
        },
        {
            "region": "europe",
            "phone": "",
            "name": "Stockholm",
            "lng": 18.054619,
            "lat": 59.333432,
            "image": "https://lh3.googleusercontent.com/Q2016qdodQKowCyzfN14RLYERc2IplyM2FzJvj0kzbW4eLXnIxoFF1eZMc_CwtodxbpyfhfebUrawHtIgFb2kh9-EQnhcaHXpV0Fnw",
            "id": "stockholm",
            "address": "Kungsbron 2 
111 22 Stockholm
Sweden"
        },
        {
            "region": "north-america",
            "phone": "",
            "name": "Sunnyvale",
            "lng": -122.031583,
            "lat": 37.403694,
            "image": "https://lh3.googleusercontent.com/xd1Z3wr4cee9gtKQSnrOd-NWjc6UTwpwngElt4pkqukzOf-l0hrgQuRRBzvSjqmF4w1ZAHR1I12grFa5Zhqd9-7dKUitPtpMg51Zrf8",
            "id": "sunnyvale",
            "address": "803 11th Avenue
Sunnyvale, CA 94089
United States"
        },
        {
            "region": "asia-pacific",
            "phone": "+61 2 9374 4000",
            "name": "Sydney",
            "lng": 151.195672,
            "lat": -33.866638,
            "image": "https://lh3.googleusercontent.com/03Hp4ZwQHs_rWLEWQtrOc62hEHzffD_uoZFCbo56eoeLyZ3L89-Fy5Dd8WcmrGFGK31QC_hZqzuU7f9QhxqjckE7BSLo_arwWjCH1w",
            "id": "sydney",
            "address": "48 Pirrama Road
Sydney, NSW 2009
Australia "
        },
        {
            "region": "asia-pacific",
            "phone": "+886 2 8729 6000",
            "name": "Taipei",
            "lng": 121.564901,
            "lat": 25.033447,
            "image": "https://lh3.googleusercontent.com/h19TQz36F4jY_ZfQxuP5F-THZbl4nAIGz473uFfLqzD_6kpw-r3b6M_Wbna5QvvymqZ-wdnhkLCRt63Pypnc9GyawNqMlQwM1_BYbg",
            "id": "taipei",
            "address": "No. 7 XinYi Road Section 5, Taipei
Taiwan"
        },
        {
            "region": "africa-middle-east",
            "phone": "+972-74-746-6453",
            "name": "Tel Aviv",
            "lng": 34.794087,
            "lat": 32.070043,
            "image": "https://lh3.googleusercontent.com/BZxU1dJCWFmtVeBqVYFC8SmSzX4CCzO5eedosW1s7sv2b2HoKwEno15vICfeQdsc_BGIaysKb8VyF64IB9hbFzMZ_MlQDJhP7kfF",
            "id": "tel-aviv",
            "address": "Yigal Alon 98
Tel Aviv, 6789141
Israel "
        },
        {
            "region": "asia-pacific",
            "phone": "+81-3-6384-9000",
            "name": "Tokyo – RPG",
            "lng": 139.729231,
            "lat": 35.66047,
            "image": "https://lh3.googleusercontent.com/i7PqriAmbeqB7KQ4h_8K0T60DD-oAoz7bvvjlB4vx2267l9QHfKBHb7WUMSutYd88Xu4TRwWqIquL05bYcpTyU_58gWp8Ja2Xo2zOfM",
            "id": "tokyo-rpg",
            "address": "Roppongi Hills Mori Tower
6-10-1 Roppongi
Minato-ku, Tokyo 106-6126
Japan"
        },
        {
            "region": "asia-pacific",
            "phone": "+81-3-6384-9000",
            "name": "Tokyo – STRM",
            "lng": 139.7028246,
            "lat": 35.6572564,
            "image": "https://lh3.googleusercontent.com/GzaUJcEqlixelFX8dg1qcLPwAb4RpEXr3JMxyxpgSTWL17Gso_aq3NeMtQPES7f_JdIrGr9YTBSt08XgNAeoLSkxr3Ue_J0cW3VMCw",
            "id": "tokyo-strm",
            "address": "Shibuya Stream
3-21-3 Shibuya
Shibuya-ku, Tokyo 150-0002
Japan"
        },
        {
            "region": "north-america",
            "phone": "416-915-8200",
            "name": "Toronto",
            "lng": -79.383858,
            "lat": 43.650477,
            "image": "https://lh3.googleusercontent.com/vZUQcWL3r_bsHBRP-Z0XfhMxjlSAAe9sZLlw5rbBzqsM6w-WVjnTZGaw3w-PkqkhHPy0x-2Xzg_gishFkVjn5r3epKifwhmRc741",
            "id": "toronto",
            "address": "111 Richmond Street West
Toronto, ON M5H 2G4
Canada"
        },
        {
            "region": "europe",
            "phone": "",
            "name": "Vienna",
            "lng": 16.368419,
            "lat": 48.209351,
            "image": "https://lh3.googleusercontent.com/roYQN_TnYd_fP0FCdZxA6lMLbp-h7PyPlDBKwVdfVWKkOCxmLjFHqm-n7hrcakcXHS1FzjXW5XWF_MApzuGIrvy2cewCYd7Z9q5MUw",
            "id": "vienna",
            "address": "Graben 19
1010 Wien
Austria"
        },
        {
            "region": "europe",
            "phone": "+48 22 207 19 00",
            "name": "Warsaw",
            "lng": 21.001668,
            "lat": 52.233448,
            "image": "https://lh3.googleusercontent.com/jTf0m2s5A2qS25ArE3x6Tl1KXtpv3JmHIfcBuw7f-JHsTR0tMiyUVeHO1wBeJ2eEGcAWUbTe3b9B8iP8wyL-TROS5zxmMofMHsnf",
            "id": "warsaw",
            "address": "Emilii Plater 53
00-113 Warsaw
Poland "
        },
        {
            "region": "north-america",
            "phone": " (202) 346-1100",
            "name": "Washington DC",
            "lng": -77.010286,
            "lat": 38.898337,
            "image": "https://lh3.googleusercontent.com/6rKu8CCH6nMVKjwpnxDlgf_Sdlc7jk83QBVhoLikzEyibYTZkvNPn-QPCJTv3AkjUYf2dHcE15UvPsrg18xNd4R8_eg3b-yn01yXgQ",
            "id": "washington-dc",
            "address": "25 Massachusetts Avenue
Washington DC, 20001
United States"
        },
        {
            "region": "europe",
            "phone": "+48 (71) 73 41 000",
            "name": "Wroclaw",
            "lng": 17.041737,
            "lat": 51.117687,
            "image": "https://lh3.googleusercontent.com/Or6dY4MCUCbMnDv4kG8J7u-QTsWhvbqbAbMN9Vp38aJAS7ec7A39gYddcEGbrwd_veFeZo2phypqc1ABk20PZ9jCVxZfuNGYS7j3LDc",
            "id": "wroclaw",
            "address": "Gen. Jozefa Bema nr 2
50-265 Wroclaw
Poland"
        },
        {
            "region": "europe",
            "phone": "+41 44 668 18 00",
            "name": "Zurich",
            "lng": 8.524425,
            "lat": 47.365063,
            "image": "https://lh3.googleusercontent.com/kmEsDEYzbMlluwDPYkeEEBpAvL9MJbXZR3hD3uettOqE8T7lbXvV508j4d4QngB7iwYZa8YYlXiVnGWfZ4ZvTJbputGXsfxrLGhD3tI",
            "id": "zurich",
            "address": "Brandschenkestrasse 110
8002 Zürich
Switzerland"
        }
    ]
}
